{"jvmName":"22798@wsvmlnapp201","Location":[{"showProductAisleNumber":"TRUE","showProductBayNumber":"TRUE","showMetaProducts":"TRUE","showStoreMapView":"TRUE","showInStockPageView":"TRUE","showProductLocations":"TRUE","DIST":4,"DIR":"","KEY":"1106","STORENAME":"North Bergen Lowe's","NAME":"LOWE'S OF NORTH BERGEN, NJ","ADDR":"7801 TONNELLE AVENUE","ADDRESS":"7801 Tonnelle Ave","CITY":"NORTH BERGEN","CITYFORMATTED":"North Bergen","STATE":"NJ","ZIP":"","PHONE":"(201) 662-0932","COMMFAX":"(201) 662-8509","HOURS":"","DIREC":"","LOGO":"","CONS":"N","COUNTRY":"US","LLAT":"40.8062664","LLON":"-74.01872879","StoreHours":{"Monday_Open":"06.00.00","Monday_Close":"22.00.00","Tuesday_Open":"06.00.00","Tuesday_Close":"22.00.00","Wednesday_Open":"06.00.00","Wednesday_Close":"22.00.00","Thursday_Open":"06.00.00","Thursday_Close":"22.00.00","Friday_Open":"06.00.00","Friday_Close":"22.00.00","Saturday_Open":"06.00.00","Saturday_Close":"22.00.00","Sunday_Open":"07.00.00","Sunday_Close":"20.00.00"},"OFFSET":"-4"},{"showProductAisleNumber":"TRUE","showProductBayNumber":"TRUE","showMetaProducts":"TRUE","showStoreMapView":"TRUE","showInStockPageView":"TRUE","showProductLocations":"TRUE","DIST":5,"DIR":"","KEY":"1674","STORENAME":"Brooklyn Lowe's","NAME":"LOWE'S OF BROOKLYN, NY","ADDR":"118 2ND AVENUE","ADDRESS":"118 2nd Ave","CITY":"BROOKLYN","CITYFORMATTED":"Brooklyn","STATE":"NY","ZIP":"","PHONE":"(718) 249-1151","COMMFAX":"(718) 249-1154","HOURS":"","DIREC":"","LOGO":"","CONS":"N","COUNTRY":"US","LLAT":"40.67178107","LLON":"-73.99583387","StoreHours":{"Monday_Open":"06.00.00","Monday_Close":"24.00.00","Tuesday_Open":"06.00.00","Tuesday_Close":"24.00.00","Wednesday_Open":"06.00.00","Wednesday_Close":"24.00.00","Thursday_Open":"06.00.00","Thursday_Close":"24.00.00","Friday_Open":"06.00.00","Friday_Close":"24.00.00","Saturday_Open":"06.00.00","Saturday_Close":"24.00.00","Sunday_Open":"08.00.00","Sunday_Close":"20.00.00"},"OFFSET":"-4"},{"showProductAisleNumber":"TRUE","showProductBayNumber":"TRUE","showMetaProducts":"TRUE","showStoreMapView":"TRUE","showInStockPageView":"TRUE","showProductLocations":"TRUE","DIST":5,"DIR":"","KEY":"1937","STORENAME":"Jersey City Lowe's","NAME":"LOWE'S OF JERSEY CITY, NJ","ADDR":"727 ROUTE 440","ADDRESS":"727 Route 440","CITY":"JERSEY CITY","CITYFORMATTED":"Jersey City","STATE":"NJ","ZIP":"","PHONE":"(201) 234-3170","COMMFAX":"(201) 234-3173","HOURS":"","DIREC":"","LOGO":"","CONS":"N","COUNTRY":"US","LLAT":"40.72283491","LLON":"-74.09431102","StoreHours":{"Monday_Open":"06.00.00","Monday_Close":"22.00.00","Tuesday_Open":"06.00.00","Tuesday_Close":"22.00.00","Wednesday_Open":"06.00.00","Wednesday_Close":"22.00.00","Thursday_Open":"06.00.00","Thursday_Close":"22.00.00","Friday_Open":"06.00.00","Friday_Close":"22.00.00","Saturday_Open":"06.00.00","Saturday_Close":"22.00.00","Sunday_Open":"08.00.00","Sunday_Close":"20.00.00"},"OFFSET":"-4"},{"showProductAisleNumber":"TRUE","showProductBayNumber":"TRUE","showMetaProducts":"TRUE","showStoreMapView":"TRUE","showInStockPageView":"TRUE","showProductLocations":"TRUE","DIST":7,"DIR":"","KEY":"1942","STORENAME":"E. Rutherford Lowe's","NAME":"LOWE'S OF E. RUTHERFORD, NJ","ADDR":"150 ROUTE 17 NORTH","ADDRESS":"150 Route 17 North","CITY":"E. RUTHERFORD","CITYFORMATTED":"E. Rutherford","STATE":"NJ","ZIP":"","PHONE":"(201) 231-6040","COMMFAX":"(201) 231-6043","HOURS":"","DIREC":"","LOGO":"","CONS":"N","COUNTRY":"US","LLAT":"40.82818961","LLON":"-74.09170953","StoreHours":{"Monday_Open":"06.00.00","Monday_Close":"22.00.00","Tuesday_Open":"06.00.00","Tuesday_Close":"22.00.00","Wednesday_Open":"06.00.00","Wednesday_Close":"22.00.00","Thursday_Open":"06.00.00","Thursday_Close":"22.00.00","Friday_Open":"06.00.00","Friday_Close":"22.00.00","Saturday_Open":"06.00.00","Saturday_Close":"22.00.00","Sunday_Open":"00.00.00","Sunday_Close":"00.00.00"},"OFFSET":"-4"},{"showProductAisleNumber":"TRUE","showProductBayNumber":"TRUE","showMetaProducts":"TRUE","showStoreMapView":"TRUE","showInStockPageView":"TRUE","showProductLocations":"TRUE","DIST":8,"DIR":"","KEY":"2676","STORENAME":"Bayonne Lowe's","NAME":"LOWE'S OF BAYONNE, NJ","ADDR":"400 BAYONNE CROSSING WAY","ADDRESS":"400 Bayonne Crossing Way","CITY":"BAYONNE","CITYFORMATTED":"Bayonne","STATE":"NJ","ZIP":"","PHONE":"(201) 243-5110","COMMFAX":"(201) 243-5113","HOURS":"","DIREC":"","LOGO":"","CONS":"N","COUNTRY":"US","LLAT":"40.66129767","LLON":"-74.10623496","StoreHours":{"Monday_Open":"06.00.00","Monday_Close":"22.00.00","Tuesday_Open":"06.00.00","Tuesday_Close":"22.00.00","Wednesday_Open":"06.00.00","Wednesday_Close":"22.00.00","Thursday_Open":"06.00.00","Thursday_Close":"22.00.00","Friday_Open":"06.00.00","Friday_Close":"22.00.00","Saturday_Open":"06.00.00","Saturday_Close":"22.00.00","Sunday_Open":"08.00.00","Sunday_Close":"20.00.00"},"OFFSET":"-4"},{"showProductAisleNumber":"TRUE","showProductBayNumber":"TRUE","showMetaProducts":"TRUE","showStoreMapView":"TRUE","showInStockPageView":"TRUE","showProductLocations":"TRUE","DIST":10,"DIR":"","KEY":"2284","STORENAME":"Brooklyn - Kings Plaza Lowe's","NAME":"LOWE'S OF BROOKLYN - KINGS PLAZA, NY","ADDR":"5602 AVENUE U","ADDRESS":"5602 Ave U","CITY":"BROOKLYN","CITYFORMATTED":"Brooklyn","STATE":"NY","ZIP":"","PHONE":"(718) 758-2910","COMMFAX":"(718) 758-2913","HOURS":"","DIREC":"","LOGO":"","CONS":"N","COUNTRY":"US","LLAT":"40.61166229","LLON":"-73.91872264","StoreHours":{"Monday_Open":"06.00.00","Monday_Close":"22.00.00","Tuesday_Open":"06.00.00","Tuesday_Close":"22.00.00","Wednesday_Open":"06.00.00","Wednesday_Close":"22.00.00","Thursday_Open":"06.00.00","Thursday_Close":"22.00.00","Friday_Open":"06.00.00","Friday_Close":"22.00.00","Saturday_Open":"06.00.00","Saturday_Close":"22.00.00","Sunday_Open":"08.00.00","Sunday_Close":"21.00.00"},"OFFSET":"-4"},{"showProductAisleNumber":"TRUE","showProductBayNumber":"TRUE","showMetaProducts":"TRUE","showStoreMapView":"TRUE","showInStockPageView":"TRUE","showProductLocations":"TRUE","DIST":12,"DIR":"","KEY":"2431","STORENAME":"Paramus Lowe's","NAME":"LOWE'S OF PARAMUS, NJ","ADDR":"2000 BERGEN TOWN CENTER","ADDRESS":"2000 Bergen Town Center","CITY":"PARAMUS","CITYFORMATTED":"Paramus","STATE":"NJ","ZIP":"","PHONE":"(201) 527-1250","COMMFAX":"(201) 527-1253","HOURS":"","DIREC":"","LOGO":"","CONS":"N","COUNTRY":"US","LLAT":"40.91266098","LLON":"-74.05200174","StoreHours":{"Monday_Open":"07.00.00","Monday_Close":"22.00.00","Tuesday_Open":"07.00.00","Tuesday_Close":"22.00.00","Wednesday_Open":"07.00.00","Wednesday_Close":"22.00.00","Thursday_Open":"07.00.00","Thursday_Close":"22.00.00","Friday_Open":"07.00.00","Friday_Close":"22.00.00","Saturday_Open":"07.00.00","Saturday_Close":"22.00.00","Sunday_Open":"00.00.00","Sunday_Close":"00.00.00"},"OFFSET":"-4"},{"showProductAisleNumber":"TRUE","showProductBayNumber":"TRUE","showMetaProducts":"TRUE","showStoreMapView":"TRUE","showInStockPageView":"TRUE","showProductLocations":"TRUE","DIST":12,"DIR":"","KEY":"1583","STORENAME":"N.W. Staten Island Lowe's","NAME":"LOWE'S OF N.W. STATEN ISLAND, NY","ADDR":"2171 FOREST AVENUE","ADDRESS":"2171 Forest Ave","CITY":"STATEN ISLAND","CITYFORMATTED":"Staten Island","STATE":"NY","ZIP":"","PHONE":"(718) 682-9027","COMMFAX":"(718) 682-9030","HOURS":"","DIREC":"","LOGO":"","CONS":"N","COUNTRY":"US","LLAT":"40.62794567","LLON":"-74.16250992","StoreHours":{"Monday_Open":"06.00.00","Monday_Close":"22.00.00","Tuesday_Open":"06.00.00","Tuesday_Close":"22.00.00","Wednesday_Open":"06.00.00","Wednesday_Close":"22.00.00","Thursday_Open":"06.00.00","Thursday_Close":"22.00.00","Friday_Open":"06.00.00","Friday_Close":"22.00.00","Saturday_Open":"06.00.00","Saturday_Close":"22.00.00","Sunday_Open":"08.00.00","Sunday_Close":"20.00.00"},"OFFSET":"-4"},{"showProductAisleNumber":"TRUE","showProductBayNumber":"TRUE","showMetaProducts":"TRUE","showStoreMapView":"TRUE","showInStockPageView":"TRUE","showProductLocations":"TRUE","DIST":13,"DIR":"","KEY":"2328","STORENAME":"Paterson Lowe's","NAME":"LOWE'S OF PATERSON, NJ","ADDR":"265 MCLEAN BOULEVARD","ADDRESS":"265 Mclean Blvd","CITY":"PATERSON","CITYFORMATTED":"Paterson","STATE":"NJ","ZIP":"","PHONE":"(973) 341-8102","COMMFAX":"(973) 341-8105","HOURS":"","DIREC":"","LOGO":"","CONS":"N","COUNTRY":"US","LLAT":"40.90554208","LLON":"-74.13394553","StoreHours":{"Monday_Open":"06.00.00","Monday_Close":"22.00.00","Tuesday_Open":"06.00.00","Tuesday_Close":"22.00.00","Wednesday_Open":"06.00.00","Wednesday_Close":"22.00.00","Thursday_Open":"06.00.00","Thursday_Close":"22.00.00","Friday_Open":"06.00.00","Friday_Close":"22.00.00","Saturday_Open":"06.00.00","Saturday_Close":"22.00.00","Sunday_Open":"07.00.00","Sunday_Close":"21.00.00"},"OFFSET":"-4"},{"showProductAisleNumber":"TRUE","showProductBayNumber":"TRUE","showMetaProducts":"TRUE","showStoreMapView":"TRUE","showInStockPageView":"TRUE","showProductLocations":"TRUE","DIST":14,"DIR":"","KEY":"1939","STORENAME":"Union Lowe's","NAME":"LOWE'S OF UNION, NJ","ADDR":"1721 MORRIS AVENUE","ADDRESS":"1721 Morris Ave","CITY":"UNION","CITYFORMATTED":"Union","STATE":"NJ","ZIP":"","PHONE":"(908) 774-4240","COMMFAX":"(908) 774-4243","HOURS":"","DIREC":"","LOGO":"","CONS":"N","COUNTRY":"US","LLAT":"40.69429818","LLON":"-74.25564263","StoreHours":{"Monday_Open":"06.00.00","Monday_Close":"22.00.00","Tuesday_Open":"06.00.00","Tuesday_Close":"22.00.00","Wednesday_Open":"06.00.00","Wednesday_Close":"22.00.00","Thursday_Open":"06.00.00","Thursday_Close":"22.00.00","Friday_Open":"06.00.00","Friday_Close":"22.00.00","Saturday_Open":"06.00.00","Saturday_Close":"22.00.00","Sunday_Open":"08.00.00","Sunday_Close":"20.00.00"},"OFFSET":"-4"},{"showProductAisleNumber":"TRUE","showProductBayNumber":"TRUE","showMetaProducts":"TRUE","showStoreMapView":"TRUE","showInStockPageView":"TRUE","showProductLocations":"TRUE","DIST":16,"DIR":"","KEY":"2664","STORENAME":"Rosedale Lowe's","NAME":"LOWE'S OF ROSEDALE, NY","ADDR":"253-01 ROCKAWAY BOULEVARD","ADDRESS":"253-01 Rockaway Blvd","CITY":"ROSEDALE","CITYFORMATTED":"Rosedale","STATE":"NY","ZIP":"","PHONE":"(516) 837-4057","COMMFAX":"(516) 837-4060","HOURS":"","DIREC":"","LOGO":"","CONS":"N","COUNTRY":"US","LLAT":"40.63885827","LLON":"-73.73971951","StoreHours":{"Monday_Open":"06.00.00","Monday_Close":"22.00.00","Tuesday_Open":"06.00.00","Tuesday_Close":"22.00.00","Wednesday_Open":"06.00.00","Wednesday_Close":"22.00.00","Thursday_Open":"06.00.00","Thursday_Close":"22.00.00","Friday_Open":"06.00.00","Friday_Close":"22.00.00","Saturday_Open":"06.00.00","Saturday_Close":"22.00.00","Sunday_Open":"07.00.00","Sunday_Close":"21.00.00"},"OFFSET":"-4"},{"showProductAisleNumber":"TRUE","showProductBayNumber":"TRUE","showMetaProducts":"FALSE","showStoreMapView":"FALSE","showInStockPageView":"TRUE","showProductLocations":"TRUE","DIST":16,"DIR":"","KEY":"3305","STORENAME":"Yonkers Lowe's","NAME":"LOWE'S OF YONKERS, NY","ADDR":"100 RIDGE HILL BOULEVARD","ADDRESS":"100 Ridge Hill Boulevard","CITY":"YONKERS","CITYFORMATTED":"Yonkers","STATE":"NY","ZIP":"","PHONE":"(914) 620-0351","COMMFAX":"(914) 620-0352","HOURS":"","DIREC":"","LOGO":"","CONS":"N","COUNTRY":"US","LLAT":"40.95997332","LLON":"-73.85787648","StoreHours":{"Monday_Open":"06.00.00","Monday_Close":"22.00.00","Tuesday_Open":"06.00.00","Tuesday_Close":"22.00.00","Wednesday_Open":"06.00.00","Wednesday_Close":"22.00.00","Thursday_Open":"06.00.00","Thursday_Close":"22.00.00","Friday_Open":"06.00.00","Friday_Close":"22.00.00","Saturday_Open":"06.00.00","Saturday_Close":"22.00.00","Sunday_Open":"07.00.00","Sunday_Close":"20.00.00"},"OFFSET":"0"},{"showProductAisleNumber":"TRUE","showProductBayNumber":"TRUE","showMetaProducts":"TRUE","showStoreMapView":"TRUE","showInStockPageView":"TRUE","showProductLocations":"TRUE","DIST":18,"DIR":"","KEY":"1597","STORENAME":"S. Staten Island Lowe's","NAME":"LOWE'S OF S. STATEN ISLAND, NY","ADDR":"2790 ARTHUR KILL ROAD","ADDRESS":"2790 Arthur Kill Rd","CITY":"STATEN ISLAND","CITYFORMATTED":"Staten Island","STATE":"NY","ZIP":"","PHONE":"(718) 477-7300","COMMFAX":"(718) 477-7303","HOURS":"","DIREC":"","LOGO":"","CONS":"N","COUNTRY":"US","LLAT":"40.54752905","LLON":"-74.22369011","StoreHours":{"Monday_Open":"06.00.00","Monday_Close":"22.00.00","Tuesday_Open":"06.00.00","Tuesday_Close":"22.00.00","Wednesday_Open":"06.00.00","Wednesday_Close":"22.00.00","Thursday_Open":"06.00.00","Thursday_Close":"22.00.00","Friday_Open":"06.00.00","Friday_Close":"22.00.00","Saturday_Open":"06.00.00","Saturday_Close":"22.00.00","Sunday_Open":"08.00.00","Sunday_Close":"20.00.00"},"OFFSET":"-4"},{"showProductAisleNumber":"TRUE","showProductBayNumber":"TRUE","showMetaProducts":"TRUE","showStoreMapView":"TRUE","showInStockPageView":"TRUE","showProductLocations":"TRUE","DIST":20,"DIR":"","KEY":"1192","STORENAME":"Orangeburg Lowe's","NAME":"LOWE'S OF ORANGEBURG, NY","ADDR":"206 ROUTE 303","ADDRESS":"206 Route 303","CITY":"ORANGEBURG","CITYFORMATTED":"Orangeburg","STATE":"NY","ZIP":"","PHONE":"(845) 613-6000","COMMFAX":"(845) 613-6003","HOURS":"","DIREC":"","LOGO":"","CONS":"N","COUNTRY":"US","LLAT":"41.04230911","LLON":"-73.94703363","StoreHours":{"Monday_Open":"06.00.00","Monday_Close":"22.00.00","Tuesday_Open":"06.00.00","Tuesday_Close":"22.00.00","Wednesday_Open":"06.00.00","Wednesday_Close":"22.00.00","Thursday_Open":"06.00.00","Thursday_Close":"22.00.00","Friday_Open":"06.00.00","Friday_Close":"22.00.00","Saturday_Open":"06.00.00","Saturday_Close":"22.00.00","Sunday_Open":"07.00.00","Sunday_Close":"20.00.00"},"OFFSET":"-4"},{"showProductAisleNumber":"TRUE","showProductBayNumber":"TRUE","showMetaProducts":"TRUE","showStoreMapView":"TRUE","showInStockPageView":"TRUE","showProductLocations":"TRUE","DIST":21,"DIR":"","KEY":"1624","STORENAME":"Garden City Lowe's","NAME":"LOWE'S OF GARDEN CITY, NY","ADDR":"700 DIBBLEE DRIVE","ADDRESS":"700 Dibblee Dr","CITY":"GARDEN CITY","CITYFORMATTED":"Garden City","STATE":"NY","ZIP":"","PHONE":"(516) 794-6531","COMMFAX":"(516) 794-7640","HOURS":"","DIREC":"","LOGO":"","CONS":"N","COUNTRY":"US","LLAT":"40.73779584","LLON":"-73.60433584","StoreHours":{"Monday_Open":"06.00.00","Monday_Close":"22.00.00","Tuesday_Open":"06.00.00","Tuesday_Close":"22.00.00","Wednesday_Open":"06.00.00","Wednesday_Close":"22.00.00","Thursday_Open":"06.00.00","Thursday_Close":"22.00.00","Friday_Open":"06.00.00","Friday_Close":"22.00.00","Saturday_Open":"06.00.00","Saturday_Close":"22.00.00","Sunday_Open":"07.00.00","Sunday_Close":"21.00.00"},"OFFSET":"-4"},{"showProductAisleNumber":"TRUE","showProductBayNumber":"TRUE","showMetaProducts":"TRUE","showStoreMapView":"TRUE","showInStockPageView":"TRUE","showProductLocations":"TRUE","DIST":21,"DIR":"","KEY":"1658","STORENAME":"Woodbridge Lowe's","NAME":"LOWE'S OF WOODBRIDGE, NJ","ADDR":"51 WOODBRIDGE CENTER DRIVE","ADDRESS":"51 Woodbridge Center Dr","CITY":"WOODBRIDGE","CITYFORMATTED":"Woodbridge","STATE":"NJ","ZIP":"","PHONE":"(732) 734-2000","COMMFAX":"(732) 734-2003","HOURS":"","DIREC":"","LOGO":"","CONS":"N","COUNTRY":"US","LLAT":"40.55012886","LLON":"-74.29388969","StoreHours":{"Monday_Open":"06.00.00","Monday_Close":"22.00.00","Tuesday_Open":"06.00.00","Tuesday_Close":"22.00.00","Wednesday_Open":"06.00.00","Wednesday_Close":"22.00.00","Thursday_Open":"06.00.00","Thursday_Close":"22.00.00","Friday_Open":"06.00.00","Friday_Close":"22.00.00","Saturday_Open":"06.00.00","Saturday_Close":"22.00.00","Sunday_Open":"08.00.00","Sunday_Close":"20.00.00"},"OFFSET":"-4"},{"showProductAisleNumber":"TRUE","showProductBayNumber":"TRUE","showMetaProducts":"TRUE","showStoreMapView":"TRUE","showInStockPageView":"TRUE","showProductLocations":"TRUE","DIST":24,"DIR":"","KEY":"1957","STORENAME":"Butler Lowe's","NAME":"LOWE'S OF BUTLER, NJ","ADDR":"1210 ROUTE 23 NORTH","ADDRESS":"1210 Route 23 North","CITY":"BUTLER","CITYFORMATTED":"Butler","STATE":"NJ","ZIP":"","PHONE":"(973) 291-5000","COMMFAX":"(973) 291-5003","HOURS":"","DIREC":"","LOGO":"","CONS":"N","COUNTRY":"US","LLAT":"40.99142322","LLON":"-74.33467957","StoreHours":{"Monday_Open":"06.00.00","Monday_Close":"22.00.00","Tuesday_Open":"06.00.00","Tuesday_Close":"22.00.00","Wednesday_Open":"06.00.00","Wednesday_Close":"22.00.00","Thursday_Open":"06.00.00","Thursday_Close":"22.00.00","Friday_Open":"06.00.00","Friday_Close":"22.00.00","Saturday_Open":"06.00.00","Saturday_Close":"22.00.00","Sunday_Open":"07.00.00","Sunday_Close":"20.00.00"},"OFFSET":"-4"},{"showProductAisleNumber":"TRUE","showProductBayNumber":"TRUE","showMetaProducts":"TRUE","showStoreMapView":"TRUE","showInStockPageView":"TRUE","showProductLocations":"TRUE","DIST":25,"DIR":"","KEY":"1035","STORENAME":"Holmdel Lowe's","NAME":"LOWE'S OF HOLMDEL, NJ","ADDR":"2194 STATE ROUTE 35","ADDRESS":"2194 State Route 35","CITY":"HOLMDEL","CITYFORMATTED":"Holmdel","STATE":"NJ","ZIP":"","PHONE":"(732) 739-9350","COMMFAX":"(732) 739-9358","HOURS":"","DIREC":"","LOGO":"","CONS":"N","COUNTRY":"US","LLAT":"40.41425721","LLON":"-74.16639811","StoreHours":{"Monday_Open":"06.00.00","Monday_Close":"22.00.00","Tuesday_Open":"06.00.00","Tuesday_Close":"22.00.00","Wednesday_Open":"06.00.00","Wednesday_Close":"22.00.00","Thursday_Open":"06.00.00","Thursday_Close":"22.00.00","Friday_Open":"06.00.00","Friday_Close":"22.00.00","Saturday_Open":"06.00.00","Saturday_Close":"22.00.00","Sunday_Open":"07.00.00","Sunday_Close":"18.00.00"},"OFFSET":"-4"},{"showProductAisleNumber":"TRUE","showProductBayNumber":"TRUE","showMetaProducts":"TRUE","showStoreMapView":"TRUE","showInStockPageView":"TRUE","showProductLocations":"TRUE","DIST":25,"DIR":"","KEY":"2249","STORENAME":"Clarkstown Lowe's","NAME":"LOWE'S OF CLARKSTOWN, NY","ADDR":"100 OVERLOOK BOULEVARD","ADDRESS":"100 Overlook Blvd","CITY":"NANUET","CITYFORMATTED":"Nanuet","STATE":"NY","ZIP":"","PHONE":"(845) 351-3500","COMMFAX":"(845) 351-3503","HOURS":"","DIREC":"","LOGO":"","CONS":"N","COUNTRY":"US","LLAT":"41.1091387","LLON":"-74.02452428","StoreHours":{"Monday_Open":"06.00.00","Monday_Close":"22.00.00","Tuesday_Open":"06.00.00","Tuesday_Close":"22.00.00","Wednesday_Open":"06.00.00","Wednesday_Close":"22.00.00","Thursday_Open":"06.00.00","Thursday_Close":"22.00.00","Friday_Open":"06.00.00","Friday_Close":"22.00.00","Saturday_Open":"06.00.00","Saturday_Close":"22.00.00","Sunday_Open":"07.00.00","Sunday_Close":"21.00.00"},"OFFSET":"-4"},{"showProductAisleNumber":"TRUE","showProductBayNumber":"TRUE","showMetaProducts":"TRUE","showStoreMapView":"TRUE","showInStockPageView":"TRUE","showProductLocations":"TRUE","DIST":26,"DIR":"","KEY":"2612","STORENAME":"Hicksville Lowe's","NAME":"LOWE'S OF HICKSVILLE, NY","ADDR":"920 SOUTH BROADWAY","ADDRESS":"920 South Broadway","CITY":"HICKSVILLE","CITYFORMATTED":"Hicksville","STATE":"NY","ZIP":"","PHONE":"(516) 733-7840","COMMFAX":"(516) 733-7843","HOURS":"","DIREC":"","LOGO":"","CONS":"N","COUNTRY":"US","LLAT":"40.74629138","LLON":"-73.50246933","StoreHours":{"Monday_Open":"06.00.00","Monday_Close":"22.00.00","Tuesday_Open":"06.00.00","Tuesday_Close":"22.00.00","Wednesday_Open":"06.00.00","Wednesday_Close":"22.00.00","Thursday_Open":"06.00.00","Thursday_Close":"22.00.00","Friday_Open":"06.00.00","Friday_Close":"22.00.00","Saturday_Open":"06.00.00","Saturday_Close":"22.00.00","Sunday_Open":"07.00.00","Sunday_Close":"21.00.00"},"OFFSET":"-4"},{"showProductAisleNumber":"TRUE","showProductBayNumber":"TRUE","showMetaProducts":"TRUE","showStoreMapView":"TRUE","showInStockPageView":"TRUE","showProductLocations":"TRUE","DIST":27,"DIR":"","KEY":"0692","STORENAME":"Piscataway Lowe's","NAME":"LOWE'S OF PISCATAWAY, NJ","ADDR":"1345 CENTENNIAL AVENUE","ADDRESS":"1345 Centennial Ave","CITY":"PISCATAWAY","CITYFORMATTED":"Piscataway","STATE":"NJ","ZIP":"","PHONE":"(732) 562-0505","COMMFAX":"(732) 562-8964","HOURS":"","DIREC":"","LOGO":"","CONS":"N","COUNTRY":"US","LLAT":"40.55270812","LLON":"-74.43690091","StoreHours":{"Monday_Open":"06.00.00","Monday_Close":"22.00.00","Tuesday_Open":"06.00.00","Tuesday_Close":"22.00.00","Wednesday_Open":"06.00.00","Wednesday_Close":"22.00.00","Thursday_Open":"06.00.00","Thursday_Close":"22.00.00","Friday_Open":"06.00.00","Friday_Close":"22.00.00","Saturday_Open":"06.00.00","Saturday_Close":"22.00.00","Sunday_Open":"08.00.00","Sunday_Close":"20.00.00"},"OFFSET":"-4"},{"showProductAisleNumber":"TRUE","showProductBayNumber":"TRUE","showMetaProducts":"TRUE","showStoreMapView":"TRUE","showInStockPageView":"TRUE","showProductLocations":"TRUE","DIST":30,"DIR":"","KEY":"1862","STORENAME":"E. Brunswick Lowe's","NAME":"LOWE'S OF E. BRUNSWICK, NJ","ADDR":"339 STATE HIGHWAY ROUTE 18","ADDRESS":"339 State Highway Route 18","CITY":"EAST BRUNSWICK","CITYFORMATTED":"East Brunswick","STATE":"NJ","ZIP":"","PHONE":"(732) 234-2000","COMMFAX":"(732) 234-2003","HOURS":"","DIREC":"","LOGO":"","CONS":"N","COUNTRY":"US","LLAT":"40.45138656","LLON":"-74.40079597","StoreHours":{"Monday_Open":"06.00.00","Monday_Close":"22.00.00","Tuesday_Open":"06.00.00","Tuesday_Close":"22.00.00","Wednesday_Open":"06.00.00","Wednesday_Close":"22.00.00","Thursday_Open":"06.00.00","Thursday_Close":"22.00.00","Friday_Open":"06.00.00","Friday_Close":"22.00.00","Saturday_Open":"06.00.00","Saturday_Close":"22.00.00","Sunday_Open":"08.00.00","Sunday_Close":"19.00.00"},"OFFSET":"-4"},{"showProductAisleNumber":"TRUE","showProductBayNumber":"TRUE","showMetaProducts":"TRUE","showStoreMapView":"TRUE","showInStockPageView":"TRUE","showProductLocations":"TRUE","DIST":30,"DIR":"","KEY":"1917","STORENAME":"Farmingdale Lowe's","NAME":"LOWE'S OF FARMINGDALE, NY","ADDR":"90 PRICE PARKWAY","ADDRESS":"90 Price Pkwy","CITY":"FARMINGDALE","CITYFORMATTED":"Farmingdale","STATE":"NY","ZIP":"","PHONE":"(631) 927-3470","COMMFAX":"(631) 927-3473","HOURS":"","DIREC":"","LOGO":"","CONS":"N","COUNTRY":"US","LLAT":"40.74087522","LLON":"-73.42557084","StoreHours":{"Monday_Open":"06.00.00","Monday_Close":"22.00.00","Tuesday_Open":"06.00.00","Tuesday_Close":"22.00.00","Wednesday_Open":"06.00.00","Wednesday_Close":"22.00.00","Thursday_Open":"06.00.00","Thursday_Close":"22.00.00","Friday_Open":"06.00.00","Friday_Close":"22.00.00","Saturday_Open":"06.00.00","Saturday_Close":"22.00.00","Sunday_Open":"07.00.00","Sunday_Close":"21.00.00"},"OFFSET":"-4"},{"showProductAisleNumber":"TRUE","showProductBayNumber":"TRUE","showMetaProducts":"TRUE","showStoreMapView":"TRUE","showInStockPageView":"TRUE","showProductLocations":"TRUE","DIST":31,"DIR":"","KEY":"1548","STORENAME":"Eatontown Lowe's","NAME":"LOWE'S OF EATONTOWN, NJ","ADDR":"118 HIGHWAY 35","ADDRESS":"118 Highway 35","CITY":"EATONTOWN","CITYFORMATTED":"Eatontown","STATE":"NJ","ZIP":"","PHONE":"(732) 544-5820","COMMFAX":"(732) 544-5823","HOURS":"","DIREC":"","LOGO":"","CONS":"N","COUNTRY":"US","LLAT":"40.29671526","LLON":"-74.05635348","StoreHours":{"Monday_Open":"06.00.00","Monday_Close":"22.00.00","Tuesday_Open":"06.00.00","Tuesday_Close":"22.00.00","Wednesday_Open":"06.00.00","Wednesday_Close":"22.00.00","Thursday_Open":"06.00.00","Thursday_Close":"22.00.00","Friday_Open":"06.00.00","Friday_Close":"22.00.00","Saturday_Open":"06.00.00","Saturday_Close":"22.00.00","Sunday_Open":"07.00.00","Sunday_Close":"19.00.00"},"OFFSET":"-4"},{"showProductAisleNumber":"TRUE","showProductBayNumber":"TRUE","showMetaProducts":"TRUE","showStoreMapView":"TRUE","showInStockPageView":"TRUE","showProductLocations":"TRUE","DIST":32,"DIR":"","KEY":"1567","STORENAME":"Marlboro Lowe's","NAME":"LOWE'S OF MARLBORO, NJ","ADDR":"57 U.S. HIGHWAY 9 SOUTH","ADDRESS":"57 U.S. Highway 9 South","CITY":"MORGANVILLE","CITYFORMATTED":"Morganville","STATE":"NJ","ZIP":"","PHONE":"(732) 972-6257","COMMFAX":"(732) 972-7368","HOURS":"","DIREC":"","LOGO":"","CONS":"N","COUNTRY":"US","LLAT":"40.35534336","LLON":"-74.30835064","StoreHours":{"Monday_Open":"06.00.00","Monday_Close":"22.00.00","Tuesday_Open":"06.00.00","Tuesday_Close":"22.00.00","Wednesday_Open":"06.00.00","Wednesday_Close":"22.00.00","Thursday_Open":"06.00.00","Thursday_Close":"22.00.00","Friday_Open":"06.00.00","Friday_Close":"22.00.00","Saturday_Open":"06.00.00","Saturday_Close":"22.00.00","Sunday_Open":"08.00.00","Sunday_Close":"19.00.00"},"OFFSET":"-4"}]}
